[[{"address_components": [{"long_name": "\uff12\uff17", "short_name": "\uff12\uff17", "types": ["premise"]}, {"long_name": "\uc218\ud45c\ub85c", "short_name": "\uc218\ud45c\ub85c", "types": ["political", "sublocality", "sublocality_level_4"]}, {"long_name": "\uc744\uc9c0\ub85c\ub3d9", "short_name": "\uc744\uc9c0\ub85c\ub3d9", "types": ["political", "sublocality", "sublocality_level_2"]}, {"long_name": "\uc911\uad6c", "short_name": "\uc911\uad6c", "types": ["political", "sublocality", "sublocality_level_1"]}, {"long_name": "\uc11c\uc6b8\ud2b9\ubcc4\uc2dc", "short_name": "\uc11c\uc6b8\ud2b9\ubcc4\uc2dc", "types": ["administrative_area_level_1", "political"]}, {"long_name": "\ub300\ud55c\ubbfc\uad6d", "short_name": "KR", "types": ["country", "political"]}, {"long_name": "100-032", "short_name": "100-032", "types": ["postal_code"]}], "formatted_address": "\ub300\ud55c\ubbfc\uad6d \uc11c\uc6b8\ud2b9\ubcc4\uc2dc \uc911\uad6c \uc744\uc9c0\ub85c\ub3d9 \uc218\ud45c\ub85c \uff12\uff17", "geometry": {"location": {"lat": 37.5636465, "lng": 126.9895796}, "location_type": "ROOFTOP", "viewport": {"northeast": {"lat": 37.56499548029149, "lng": 126.9909285802915}, "southwest": {"lat": 37.56229751970849, "lng": 126.9882306197085}}}, "place_id": "ChIJc-9q5uSifDURLhQmr5wkXmc", "types": ["establishment", "point_of_interest", "police"]}], [{"address_components": [{"long_name": "\uff14\uff16", "short_name": "\uff14\uff16", "types": ["premise"]}, {"long_name": "\uc728\uace1\ub85c", "short_name": "\uc728\uace1\ub85c", "types": ["political", "sublocality", "sublocality_level_4"]}, {"long_name": "\uc885\ub85c1.2.3.4\uac00\ub3d9", "short_name": "\uc885\ub85c1.2.3.4\uac00\ub3d9", "types": ["political", "sublocality", "sublocality_level_2"]}, {"long_name": "\uc885\ub85c\uad6c", "short_name": "\uc885\ub85c\uad6c", "types": ["political", "sublocality", "sublocality_level_1"]}, {"long_name": "\uc11c\uc6b8\ud2b9\ubcc4\uc2dc", "short_name": "\uc11c\uc6b8\ud2b9\ubcc4\uc2dc", "types": ["administrative_area_level_1", "political"]}, {"long_name": "\ub300\ud55c\ubbfc\uad6d", "short_name": "KR", "types": ["country", "political"]}, {"long_name": "110-310", "short_name": "110-310", "types": ["postal_code"]}], "formatted_address": "\ub300\ud55c\ubbfc\uad6d \uc11c\uc6b8\ud2b9\ubcc4\uc2dc \uc885\ub85c\uad6c \uc885\ub85c1.2.3.4\uac00\ub3d9 \uc728\uace1\ub85c \uff14\uff16", "geometry": {"location": {"lat": 37.5755578, "lng": 126.9848674}, "location_type": "ROOFTOP", "viewport": {"northeast": {"lat": 37.5769067802915, "lng": 126.9862163802915}, "southwest": {"lat": 37.5742088197085, "lng": 126.9835184197085}}}, "place_id": "ChIJRVgVHsOifDURFhKFchVo22I", "types": ["establishment", "point_of_interest", "police"]}], [{"address_components": [{"long_name": "\uff14\uff11\uff10", "short_name": "\uff14\uff11\uff10", "types": ["premise"]}, {"long_name": "\ud55c\uac15\ub300\ub85c", "short_name": "\ud55c\uac15\ub300\ub85c", "types": ["political", "sublocality", "sublocality_level_4"]}, {"long_name": "\ub0a8\ub300\ubb38\ub85c5\uac00", "short_name": "\ub0a8\ub300\ubb38\ub85c5\uac00", "types": ["political", "sublocality", "sublocality_level_2"]}, {"long_name": "\uc911\uad6c", "short_name": "\uc911\uad6c", "types": ["political", "sublocality", "sublocality_level_1"]}, {"long_name": "\uc11c\uc6b8\ud2b9\ubcc4\uc2dc", "short_name": "\uc11c\uc6b8\ud2b9\ubcc4\uc2dc", "types": ["administrative_area_level_1", "political"]}, {"long_name": "\ub300\ud55c\ubbfc\uad6d", "short_name": "KR", "types": ["country", "political"]}, {"long_name": "100-095", "short_name": "100-095", "types": ["postal_code"]}], "formatted_address": "\ub300\ud55c\ubbfc\uad6d \uc11c\uc6b8\ud2b9\ubcc4\uc2dc \uc911\uad6c \ub0a8\ub300\ubb38\ub85c5\uac00 \ud55c\uac15\ub300\ub85c \uff14\uff11\uff10", "geometry": {"location": {"lat": 37.5547584, "lng": 126.9734981}, "location_type": "ROOFTOP", "viewport": {"northeast": {"lat": 37.5561073802915, "lng": 126.9748470802915}, "southwest": {"lat": 37.5534094197085, "lng": 126.9721491197085}}}, "place_id": "ChIJFXNA0GCifDURCtV185R5xD8", "types": ["establishment", "point_of_interest", "police"]}], [{"address_components": [{"long_name": "\uff11\uff11\uff13", "short_name": "\uff11\uff11\uff13", "types": ["premise"]}, {"long_name": "\ud1b5\uc77c\ub85c", "short_name": "\ud1b5\uc77c\ub85c", "types": ["political", "sublocality", "sublocality_level_4"]}, {"long_name": "\ubbf8\uadfc\ub3d9", "short_name": "\ubbf8\uadfc\ub3d9", "types": ["political", "sublocality", "sublocality_level_2"]}, {"long_name": "\uc11c\ub300\ubb38\uad6c", "short_name": "\uc11c\ub300\ubb38\uad6c", "types": ["political", "sublocality", "sublocality_level_1"]}, {"long_name": "\uc11c\uc6b8\ud2b9\ubcc4\uc2dc", "short_name": "\uc11c\uc6b8\ud2b9\ubcc4\uc2dc", "types": ["administrative_area_level_1", "political"]}, {"long_name": "\ub300\ud55c\ubbfc\uad6d", "short_name": "KR", "types": ["country", "political"]}, {"long_name": "120-020", "short_name": "120-020", "types": ["postal_code"]}], "formatted_address": "\ub300\ud55c\ubbfc\uad6d \uc11c\uc6b8\ud2b9\ubcc4\uc2dc \uc11c\ub300\ubb38\uad6c \ubbf8\uadfc\ub3d9 \ud1b5\uc77c\ub85c \uff11\uff11\uff13", "geometry": {"location": {"lat": 37.5647848, "lng": 126.9667762}, "location_type": "ROOFTOP", "viewport": {"northeast": {"lat": 37.56613378029149, "lng": 126.9681251802915}, "southwest": {"lat": 37.5634358197085, "lng": 126.9654272197085}}}, "place_id": "ChIJCZy8woiifDURz7CV6Khfi18", "types": ["establishment", "point_of_interest", "police"]}], [{"address_components": [{"long_name": "\uff11\uff11\uff12\u2212\uff11\uff16", "short_name": "\uff11\uff11\uff12\u2212\uff11\uff16", "types": ["premise"]}, {"long_name": "\ucc3d\uacbd\uad81\ub85c", "short_name": "\ucc3d\uacbd\uad81\ub85c", "types": ["political", "sublocality", "sublocality_level_4"]}, {"long_name": "\uc885\ub85c1.2.3.4\uac00\ub3d9", "short_name": "\uc885\ub85c1.2.3.4\uac00\ub3d9", "types": ["political", "sublocality", "sublocality_level_2"]}, {"long_name": "\uc885\ub85c\uad6c", "short_name": "\uc885\ub85c\uad6c", "types": ["political", "sublocality", "sublocality_level_1"]}, {"long_name": "\uc11c\uc6b8\ud2b9\ubcc4\uc2dc", "short_name": "\uc11c\uc6b8\ud2b9\ubcc4\uc2dc", "types": ["administrative_area_level_1", "political"]}, {"long_name": "\ub300\ud55c\ubbfc\uad6d", "short_name": "KR", "types": ["country", "political"]}, {"long_name": "110-410", "short_name": "110-410", "types": ["postal_code"]}], "formatted_address": "\ub300\ud55c\ubbfc\uad6d \uc11c\uc6b8\ud2b9\ubcc4\uc2dc \uc885\ub85c\uad6c \uc885\ub85c1.2.3.4\uac00\ub3d9 \ucc3d\uacbd\uad81\ub85c \uff11\uff11\uff12\u2212\uff11\uff16", "geometry": {"location": {"lat": 37.5718401, "lng": 126.9988562}, "location_type": "ROOFTOP", "viewport": {"northeast": {"lat": 37.57318908029149, "lng": 127.0002051802915}, "southwest": {"lat": 37.57049111970849, "lng": 126.9975072197085}}}, "place_id": "ChIJc0PIxSCjfDURWuMVOPZrMTM", "types": ["establishment", "point_of_interest", "police"]}], [{"address_components": [{"long_name": "\uff11\uff12\u2212\uff11\uff12", "short_name": "\uff11\uff12\u2212\uff11\uff12", "types": ["premise"]}, {"long_name": "\uc6d0\ud6a8\ub85c1\uac00", "short_name": "\uc6d0\ud6a8\ub85c1\uac00", "types": ["political", "sublocality", "sublocality_level_2"]}, {"long_name": "\uc6a9\uc0b0\uad6c", "short_name": "\uc6a9\uc0b0\uad6c", "types": ["political", "sublocality", "sublocality_level_1"]}, {"long_name": "\uc11c\uc6b8\ud2b9\ubcc4\uc2dc", "short_name": "\uc11c\uc6b8\ud2b9\ubcc4\uc2dc", "types": ["administrative_area_level_1", "political"]}, {"long_name": "\ub300\ud55c\ubbfc\uad6d", "short_name": "KR", "types": ["country", "political"]}, {"long_name": "140-111", "short_name": "140-111", "types": ["postal_code"]}], "formatted_address": "\ub300\ud55c\ubbfc\uad6d \uc11c\uc6b8\ud2b9\ubcc4\uc2dc \uc6a9\uc0b0\uad6c \uc6d0\ud6a8\ub85c1\uac00 \uff11\uff12\u2212\uff11\uff12", "geometry": {"location": {"lat": 37.5411211, "lng": 126.9676935}, "location_type": "ROOFTOP", "viewport": {"northeast": {"lat": 37.54247008029149, "lng": 126.9690424802915}, "southwest": {"lat": 37.53977211970849, "lng": 126.9663445197085}}}, "place_id": "ChIJAbU8HhOifDUR8hROXOdHGXg", "types": ["establishment", "point_of_interest", "police"]}], [{"address_components": [{"long_name": "301", "short_name": "301", "types": ["street_number"]}, {"long_name": "\uc0bc\uc120\ub3d95\uac00", "short_name": "\uc0bc\uc120\ub3d95\uac00", "types": ["political", "sublocality", "sublocality_level_2"]}, {"long_name": "\uc131\ubd81\uad6c", "short_name": "\uc131\ubd81\uad6c", "types": ["political", "sublocality", "sublocality_level_1"]}, {"long_name": "\uc11c\uc6b8\ud2b9\ubcc4\uc2dc", "short_name": "\uc11c\uc6b8\ud2b9\ubcc4\uc2dc", "types": ["administrative_area_level_1", "political"]}, {"long_name": "\ub300\ud55c\ubbfc\uad6d", "short_name": "KR", "types": ["country", "political"]}, {"long_name": "136-045", "short_name": "136-045", "types": ["postal_code"]}], "formatted_address": "\ub300\ud55c\ubbfc\uad6d \uc11c\uc6b8\ud2b9\ubcc4\uc2dc \uc131\ubd81\uad6c \uc0bc\uc120\ub3d95\uac00 301", "geometry": {"location": {"lat": 37.5897271, "lng": 127.0161318}, "location_type": "ROOFTOP", "viewport": {"northeast": {"lat": 37.59107608029149, "lng": 127.0174807802915}, "southwest": {"lat": 37.58837811970849, "lng": 127.0147828197085}}}, "place_id": "ChIJCzgT1Me8fDURiSAT03pwJPg", "types": ["establishment", "point_of_interest", "police"]}], [{"address_components": [{"long_name": "\uff12\uff19", "short_name": "\uff12\uff19", "types": ["premise"]}, {"long_name": "\uc57d\ub839\uc2dc\ub85c21\uae38", "short_name": "\uc57d\ub839\uc2dc\ub85c21\uae38", "types": ["political", "sublocality", "sublocality_level_4"]}, {"long_name": "\uccad\ub7c9\ub9ac\ub3d9", "short_name": "\uccad\ub7c9\ub9ac\ub3d9", "types": ["political", "sublocality", "sublocality_level_2"]}, {"long_name": "\ub3d9\ub300\ubb38\uad6c", "short_name": "\ub3d9\ub300\ubb38\uad6c", "types": ["political", "sublocality", "sublocality_level_1"]}, {"long_name": "\uc11c\uc6b8\ud2b9\ubcc4\uc2dc", "short_name": "\uc11c\uc6b8\ud2b9\ubcc4\uc2dc", "types": ["administrative_area_level_1", "political"]}, {"long_name": "\ub300\ud55c\ubbfc\uad6d", "short_name": "KR", "types": ["country", "political"]}, {"long_name": "130-010", "short_name": "130-010", "types": ["postal_code"]}], "formatted_address": "\ub300\ud55c\ubbfc\uad6d \uc11c\uc6b8\ud2b9\ubcc4\uc2dc \ub3d9\ub300\ubb38\uad6c \uccad\ub7c9\ub9ac\ub3d9 \uc57d\ub839\uc2dc\ub85c21\uae38 \uff12\uff19", "geometry": {"location": {"lat": 37.58506149999999, "lng": 127.0457679}, "location_type": "ROOFTOP", "viewport": {"northeast": {"lat": 37.5864104802915, "lng": 127.0471168802915}, "southwest": {"lat": 37.5837125197085, "lng": 127.0444189197085}}}, "place_id": "ChIJKUctL1y7fDURClHzlLM2Ir8", "types": ["establishment", "point_of_interest", "police"]}], [{"address_components": [{"long_name": "\uff16\uff11\uff18\u2212\uff11", "short_name": "\uff16\uff11\uff18\u2212\uff11", "types": ["premise"]}, {"long_name": "\uc544\ud604\ub3d9", "short_name": "\uc544\ud604\ub3d9", "types": ["political", "sublocality", "sublocality_level_2"]}, {"long_name": "\ub9c8\ud3ec\uad6c", "short_name": "\ub9c8\ud3ec\uad6c", "types": ["political", "sublocality", "sublocality_level_1"]}, {"long_name": "\uc11c\uc6b8\ud2b9\ubcc4\uc2dc", "short_name": "\uc11c\uc6b8\ud2b9\ubcc4\uc2dc", "types": ["administrative_area_level_1", "political"]}, {"long_name": "\ub300\ud55c\ubbfc\uad6d", "short_name": "KR", "types": ["country", "political"]}, {"long_name": "121-010", "short_name": "121-010", "types": ["postal_code"]}], "formatted_address": "\ub300\ud55c\ubbfc\uad6d \uc11c\uc6b8\ud2b9\ubcc4\uc2dc \ub9c8\ud3ec\uad6c \uc544\ud604\ub3d9 \uff16\uff11\uff18\u2212\uff11", "geometry": {"location": {"lat": 37.550814, "lng": 126.954028}, "location_type": "ROOFTOP", "viewport": {"northeast": {"lat": 37.5521629802915, "lng": 126.9553769802915}, "southwest": {"lat": 37.5494650197085, "lng": 126.9526790197085}}}, "place_id": "ChIJc8rsjHWifDUR0YQrTyV4_zo", "types": ["establishment", "point_of_interest", "police"]}], [{"address_components": [{"long_name": "\uff12\u2212\uff11\uff11", "short_name": "\uff12\u2212\uff11\uff11", "types": ["premise"]}, {"long_name": "\ub2f9\uc0b0\ub3d93\uac00", "short_name": "\ub2f9\uc0b0\ub3d93\uac00", "types": ["political", "sublocality", "sublocality_level_2"]}, {"long_name": "\uc601\ub4f1\ud3ec\uad6c", "short_name": "\uc601\ub4f1\ud3ec\uad6c", "types": ["political", "sublocality", "sublocality_level_1"]}, {"long_name": "\uc11c\uc6b8\ud2b9\ubcc4\uc2dc", "short_name": "\uc11c\uc6b8\ud2b9\ubcc4\uc2dc", "types": ["administrative_area_level_1", "political"]}, {"long_name": "\ub300\ud55c\ubbfc\uad6d", "short_name": "KR", "types": ["country", "political"]}, {"long_name": "150-043", "short_name": "150-043", "types": ["postal_code"]}], "formatted_address": "\ub300\ud55c\ubbfc\uad6d \uc11c\uc6b8\ud2b9\ubcc4\uc2dc \uc601\ub4f1\ud3ec\uad6c \ub2f9\uc0b0\ub3d93\uac00 \uff12\u2212\uff11\uff11", "geometry": {"location": {"lat": 37.5257884, "lng": 126.901006}, "location_type": "ROOFTOP", "viewport": {"northeast": {"lat": 37.5271373802915, "lng": 126.9023549802915}, "southwest": {"lat": 37.5244394197085, "lng": 126.8996570197085}}}, "place_id": "ChIJd6_oBOaefDURSbP_dl2p_Js", "types": ["establishment", "point_of_interest", "police"]}], [{"address_components": [{"long_name": "9", "short_name": "9", "types": ["political", "premise"]}, {"long_name": "\uc655\uc2ed\ub9ac\uad11\uc7a5\ub85c", "short_name": "\uc655\uc2ed\ub9ac\uad11\uc7a5\ub85c", "types": ["political", "sublocality", "sublocality_level_4"]}, {"long_name": "\ud589\ub2f91\ub3d9", "short_name": "\ud589\ub2f91\ub3d9", "types": ["political", "sublocality", "sublocality_level_2"]}, {"long_name": "\uc131\ub3d9\uad6c", "short_name": "\uc131\ub3d9\uad6c", "types": ["political", "sublocality", "sublocality_level_1"]}, {"long_name": "\uc11c\uc6b8\ud2b9\ubcc4\uc2dc", "short_name": "\uc11c\uc6b8\ud2b9\ubcc4\uc2dc", "types": ["administrative_area_level_1", "political"]}, {"long_name": "\ub300\ud55c\ubbfc\uad6d", "short_name": "KR", "types": ["country", "political"]}, {"long_name": "133-070", "short_name": "133-070", "types": ["postal_code"]}], "formatted_address": "\ub300\ud55c\ubbfc\uad6d \uc11c\uc6b8\ud2b9\ubcc4\uc2dc \uc131\ub3d9\uad6c \ud589\ub2f91\ub3d9 \uc655\uc2ed\ub9ac\uad11\uc7a5\ub85c 9", "geometry": {"location": {"lat": 37.5617309, "lng": 127.0363806}, "location_type": "ROOFTOP", "viewport": {"northeast": {"lat": 37.5630798802915, "lng": 127.0377295802915}, "southwest": {"lat": 37.5603819197085, "lng": 127.0350316197085}}}, "place_id": "ChIJA8Pio1mjfDURAN4B7oLFW4E", "types": ["establishment", "point_of_interest", "police"]}], [{"address_components": [{"long_name": "\uff17\uff12", "short_name": "\uff17\uff12", "types": ["premise"]}, {"long_name": "\ub178\ub7c9\uc9c4\ub3d9", "short_name": "\ub178\ub7c9\uc9c4\ub3d9", "types": ["political", "sublocality", "sublocality_level_2"]}, {"long_name": "\ub3d9\uc791\uad6c", "short_name": "\ub3d9\uc791\uad6c", "types": ["political", "sublocality", "sublocality_level_1"]}, {"long_name": "\uc11c\uc6b8\ud2b9\ubcc4\uc2dc", "short_name": "\uc11c\uc6b8\ud2b9\ubcc4\uc2dc", "types": ["administrative_area_level_1", "political"]}, {"long_name": "\ub300\ud55c\ubbfc\uad6d", "short_name": "KR", "types": ["country", "political"]}, {"long_name": "156-050", "short_name": "156-050", "types": ["postal_code"]}], "formatted_address": "\ub300\ud55c\ubbfc\uad6d \uc11c\uc6b8\ud2b9\ubcc4\uc2dc \ub3d9\uc791\uad6c \ub178\ub7c9\uc9c4\ub3d9 \uff17\uff12", "geometry": {"location": {"lat": 37.5130685, "lng": 126.9428078}, "location_type": "ROOFTOP", "viewport": {"northeast": {"lat": 37.5144174802915, "lng": 126.9441567802915}, "southwest": {"lat": 37.5117195197085, "lng": 126.9414588197085}}}, "place_id": "ChIJB3ImbmiffDUR7BOlDuasX44", "types": ["establishment", "point_of_interest", "police"]}, {"address_components": [{"long_name": "\uff11\uff10\uff12\uff18\u2212\uff11", "short_name": "\uff11\uff10\uff12\uff18\u2212\uff11", "types": ["premise"]}, {"long_name": "\uc0ac\ub2f9\ub3d9", "short_name": "\uc0ac\ub2f9\ub3d9", "types": ["political", "sublocality", "sublocality_level_2"]}, {"long_name": "\ub3d9\uc791\uad6c", "short_name": "\ub3d9\uc791\uad6c", "types": ["political", "sublocality", "sublocality_level_1"]}, {"long_name": "\uc11c\uc6b8\ud2b9\ubcc4\uc2dc", "short_name": "\uc11c\uc6b8\ud2b9\ubcc4\uc2dc", "types": ["administrative_area_level_1", "political"]}, {"long_name": "\ub300\ud55c\ubbfc\uad6d", "short_name": "KR", "types": ["country", "political"]}, {"long_name": "156-090", "short_name": "156-090", "types": ["postal_code"]}], "formatted_address": "\ub300\ud55c\ubbfc\uad6d \uc11c\uc6b8\ud2b9\ubcc4\uc2dc \ub3d9\uc791\uad6c \uc0ac\ub2f9\ub3d9 \uff11\uff10\uff12\uff18\u2212\uff11", "geometry": {"location": {"lat": 37.4805401, "lng": 126.9794943}, "location_type": "ROOFTOP", "viewport": {"northeast": {"lat": 37.4818890802915, "lng": 126.9808432802915}, "southwest": {"lat": 37.4791911197085, "lng": 126.9781453197085}}}, "place_id": "ChIJpzsNdUugfDUR3r28czFjtsM", "types": ["establishment", "point_of_interest", "police"]}], [{"address_components": [{"long_name": "\uff11\uff16\uff17", "short_name": "\uff11\uff16\uff17", "types": ["premise"]}, {"long_name": "\uc790\uc591\ub85c", "short_name": "\uc790\uc591\ub85c", "types": ["political", "sublocality", "sublocality_level_4"]}, {"long_name": "\uad6c\uc7581\ub3d9", "short_name": "\uad6c\uc7581\ub3d9", "types": ["political", "sublocality", "sublocality_level_2"]}, {"long_name": "\uad11\uc9c4\uad6c", "short_name": "\uad11\uc9c4\uad6c", "types": ["political", "sublocality", "sublocality_level_1"]}, {"long_name": "\uc11c\uc6b8\ud2b9\ubcc4\uc2dc", "short_name": "\uc11c\uc6b8\ud2b9\ubcc4\uc2dc", "types": ["administrative_area_level_1", "political"]}, {"long_name": "\ub300\ud55c\ubbfc\uad6d", "short_name": "KR", "types": ["country", "political"]}, {"long_name": "143-200", "short_name": "143-200", "types": ["postal_code"]}], "formatted_address": "\ub300\ud55c\ubbfc\uad6d \uc11c\uc6b8\ud2b9\ubcc4\uc2dc \uad11\uc9c4\uad6c \uad6c\uc7581\ub3d9 \uc790\uc591\ub85c \uff11\uff16\uff17", "geometry": {"location": {"lat": 37.542873, "lng": 127.083821}, "location_type": "ROOFTOP", "viewport": {"northeast": {"lat": 37.5442219802915, "lng": 127.0851699802915}, "southwest": {"lat": 37.5415240197085, "lng": 127.0824720197085}}}, "place_id": "ChIJNbvWaSelfDURIjHmxaVUnBA", "types": ["establishment", "point_of_interest", "police"]}], [{"address_components": [{"long_name": "\uff11\uff17\uff17\u2212\uff11\uff15", "short_name": "\uff11\uff17\uff17\u2212\uff11\uff15", "types": ["premise"]}, {"long_name": "\ub179\ubc88\ub3d9", "short_name": "\ub179\ubc88\ub3d9", "types": ["political", "sublocality", "sublocality_level_2"]}, {"long_name": "\uc740\ud3c9\uad6c", "short_name": "\uc740\ud3c9\uad6c", "types": ["political", "sublocality", "sublocality_level_1"]}, {"long_name": "\uc11c\uc6b8\ud2b9\ubcc4\uc2dc", "short_name": "\uc11c\uc6b8\ud2b9\ubcc4\uc2dc", "types": ["administrative_area_level_1", "political"]}, {"long_name": "\ub300\ud55c\ubbfc\uad6d", "short_name": "KR", "types": ["country", "political"]}, {"long_name": "122-020", "short_name": "122-020", "types": ["postal_code"]}], "formatted_address": "\ub300\ud55c\ubbfc\uad6d \uc11c\uc6b8\ud2b9\ubcc4\uc2dc \uc740\ud3c9\uad6c \ub179\ubc88\ub3d9 \uff11\uff17\uff17\u2212\uff11\uff15", "geometry": {"location": {"lat": 37.6021405, "lng": 126.9213074}, "location_type": "ROOFTOP", "viewport": {"northeast": {"lat": 37.6034894802915, "lng": 126.9226563802915}, "southwest": {"lat": 37.6007915197085, "lng": 126.9199584197085}}}, "place_id": "ChIJTYRjmDCYfDUR_0-1xORSrEY", "types": ["establishment", "point_of_interest", "police"]}], [{"address_components": [{"long_name": "\uff14\uff11\uff15\u2212\uff11\uff15", "short_name": "\uff14\uff11\uff15\u2212\uff11\uff15", "types": ["premise"]}, {"long_name": "\ubc881\ub3d9", "short_name": "\ubc881\ub3d9", "types": ["political", "sublocality", "sublocality_level_2"]}, {"long_name": "\uac15\ubd81\uad6c", "short_name": "\uac15\ubd81\uad6c", "types": ["political", "sublocality", "sublocality_level_1"]}, {"long_name": "\uc11c\uc6b8\ud2b9\ubcc4\uc2dc", "short_name": "\uc11c\uc6b8\ud2b9\ubcc4\uc2dc", "types": ["administrative_area_level_1", "political"]}, {"long_name": "\ub300\ud55c\ubbfc\uad6d", "short_name": "KR", "types": ["country", "political"]}, {"long_name": "142-060", "short_name": "142-060", "types": ["postal_code"]}], "formatted_address": "\ub300\ud55c\ubbfc\uad6d \uc11c\uc6b8\ud2b9\ubcc4\uc2dc \uac15\ubd81\uad6c \ubc881\ub3d9 \uff14\uff11\uff15\u2212\uff11\uff15", "geometry": {"location": {"lat": 37.6373881, "lng": 127.0273238}, "location_type": "ROOFTOP", "viewport": {"northeast": {"lat": 37.63873708029149, "lng": 127.0286727802915}, "southwest": {"lat": 37.63603911970849, "lng": 127.0259748197085}}}, "place_id": "ChIJ_wkrvRG8fDURn_RnVb8f8tM", "types": ["establishment", "point_of_interest", "police"]}], [{"address_components": [{"long_name": "\uff15\uff14\uff14", "short_name": "\uff15\uff14\uff14", "types": ["premise"]}, {"long_name": "\uc2e0\ub9bc\ub3d9", "short_name": "\uc2e0\ub9bc\ub3d9", "types": ["political", "sublocality", "sublocality_level_2"]}, {"long_name": "\uad00\uc545\uad6c", "short_name": "\uad00\uc545\uad6c", "types": ["political", "sublocality", "sublocality_level_1"]}, {"long_name": "\uc11c\uc6b8\ud2b9\ubcc4\uc2dc", "short_name": "\uc11c\uc6b8\ud2b9\ubcc4\uc2dc", "types": ["administrative_area_level_1", "political"]}, {"long_name": "\ub300\ud55c\ubbfc\uad6d", "short_name": "KR", "types": ["country", "political"]}, {"long_name": "151-015", "short_name": "151-015", "types": ["postal_code"]}], "formatted_address": "\ub300\ud55c\ubbfc\uad6d \uc11c\uc6b8\ud2b9\ubcc4\uc2dc \uad00\uc545\uad6c \uc2e0\ub9bc\ub3d9 \uff15\uff14\uff14", "geometry": {"location": {"lat": 37.4814051, "lng": 126.9099508}, "location_type": "ROOFTOP", "viewport": {"northeast": {"lat": 37.48275408029149, "lng": 126.9112997802915}, "southwest": {"lat": 37.4800561197085, "lng": 126.9086018197085}}}, "place_id": "ChIJ2-RavjKefDURmXUg-JJ7fwk", "types": ["establishment", "point_of_interest", "police"]}], [{"address_components": [{"long_name": "\uff14\uff10\u2212\uff11\uff10", "short_name": "\uff14\uff10\u2212\uff11\uff10", "types": ["premise"]}, {"long_name": "\uc2e0\ub0b4\uc5ed\ub85c3\uae38", "short_name": "\uc2e0\ub0b4\uc5ed\ub85c3\uae38", "types": ["political", "sublocality", "sublocality_level_4"]}, {"long_name": "\uc2e0\ub0b41\ub3d9", "short_name": "\uc2e0\ub0b41\ub3d9", "types": ["political", "sublocality", "sublocality_level_2"]}, {"long_name": "\uc911\ub791\uad6c", "short_name": "\uc911\ub791\uad6c", "types": ["political", "sublocality", "sublocality_level_1"]}, {"long_name": "\uc11c\uc6b8\ud2b9\ubcc4\uc2dc", "short_name": "\uc11c\uc6b8\ud2b9\ubcc4\uc2dc", "types": ["administrative_area_level_1", "political"]}, {"long_name": "\ub300\ud55c\ubbfc\uad6d", "short_name": "KR", "types": ["country", "political"]}, {"long_name": "131-130", "short_name": "131-130", "types": ["postal_code"]}], "formatted_address": "\ub300\ud55c\ubbfc\uad6d \uc11c\uc6b8\ud2b9\ubcc4\uc2dc \uc911\ub791\uad6c \uc2e0\ub0b41\ub3d9 \uc2e0\ub0b4\uc5ed\ub85c3\uae38 \uff14\uff10\u2212\uff11\uff10", "geometry": {"location": {"lat": 37.618692, "lng": 127.1047136}, "location_type": "ROOFTOP", "viewport": {"northeast": {"lat": 37.62004098029149, "lng": 127.1060625802915}, "southwest": {"lat": 37.61734301970849, "lng": 127.1033646197085}}}, "place_id": "ChIJ2bFnYx-6fDURfctUJGeqD44", "types": ["establishment", "point_of_interest", "police"]}], [{"address_components": [{"long_name": "\uff19\uff19\uff18", "short_name": "\uff19\uff19\uff18", "types": ["premise"]}, {"long_name": "\ub300\uce58\ub3d9", "short_name": "\ub300\uce58\ub3d9", "types": ["political", "sublocality", "sublocality_level_2"]}, {"long_name": "\uac15\ub0a8\uad6c", "short_name": "\uac15\ub0a8\uad6c", "types": ["political", "sublocality", "sublocality_level_1"]}, {"long_name": "\uc11c\uc6b8\ud2b9\ubcc4\uc2dc", "short_name": "\uc11c\uc6b8\ud2b9\ubcc4\uc2dc", "types": ["administrative_area_level_1", "political"]}, {"long_name": "\ub300\ud55c\ubbfc\uad6d", "short_name": "KR", "types": ["country", "political"]}, {"long_name": "135-280", "short_name": "135-280", "types": ["postal_code"]}], "formatted_address": "\ub300\ud55c\ubbfc\uad6d \uc11c\uc6b8\ud2b9\ubcc4\uc2dc \uac15\ub0a8\uad6c \ub300\uce58\ub3d9 \uff19\uff19\uff18", "geometry": {"location": {"lat": 37.5094352, "lng": 127.0669578}, "location_type": "ROOFTOP", "viewport": {"northeast": {"lat": 37.5107841802915, "lng": 127.0683067802915}, "southwest": {"lat": 37.5080862197085, "lng": 127.0656088197085}}}, "place_id": "ChIJcbaB0UakfDURoyy8orQOWFg", "types": ["establishment", "point_of_interest", "police"]}], [{"address_components": [{"long_name": "\ubd09\ucc9c\ub3d9", "short_name": "\ubd09\ucc9c\ub3d9", "types": ["political", "sublocality", "sublocality_level_2"]}, {"long_name": "\uad00\uc545\uad6c", "short_name": "\uad00\uc545\uad6c", "types": ["political", "sublocality", "sublocality_level_1"]}, {"long_name": "\uc11c\uc6b8\ud2b9\ubcc4\uc2dc", "short_name": "\uc11c\uc6b8\ud2b9\ubcc4\uc2dc", "types": ["administrative_area_level_1", "political"]}, {"long_name": "\ub300\ud55c\ubbfc\uad6d", "short_name": "KR", "types": ["country", "political"]}, {"long_name": "151-050", "short_name": "151-050", "types": ["postal_code"]}], "formatted_address": "\ub300\ud55c\ubbfc\uad6d \uc11c\uc6b8\ud2b9\ubcc4\uc2dc \uad00\uc545\uad6c \ubd09\ucc9c\ub3d9", "geometry": {"location": {"lat": 37.4743789, "lng": 126.9509748}, "location_type": "GEOMETRIC_CENTER", "viewport": {"northeast": {"lat": 37.4757278802915, "lng": 126.9523237802915}, "southwest": {"lat": 37.4730299197085, "lng": 126.9496258197085}}}, "place_id": "ChIJIcPY0_SffDURRUZI3LvvKiU", "types": ["establishment", "point_of_interest", "police"]}], [{"address_components": [{"long_name": "\uff17\uff13", "short_name": "\uff17\uff13", "types": ["premise"]}, {"long_name": "\ud654\uace1\ub85c", "short_name": "\ud654\uace1\ub85c", "types": ["political", "sublocality", "sublocality_level_4"]}, {"long_name": "\uc2e0\uc6d4\ub3d9", "short_name": "\uc2e0\uc6d4\ub3d9", "types": ["political", "sublocality", "sublocality_level_2"]}, {"long_name": "\uc591\ucc9c\uad6c", "short_name": "\uc591\ucc9c\uad6c", "types": ["political", "sublocality", "sublocality_level_1"]}, {"long_name": "\uc11c\uc6b8\ud2b9\ubcc4\uc2dc", "short_name": "\uc11c\uc6b8\ud2b9\ubcc4\uc2dc", "types": ["administrative_area_level_1", "political"]}, {"long_name": "\ub300\ud55c\ubbfc\uad6d", "short_name": "KR", "types": ["country", "political"]}, {"long_name": "158-090", "short_name": "158-090", "types": ["postal_code"]}], "formatted_address": "\ub300\ud55c\ubbfc\uad6d \uc11c\uc6b8\ud2b9\ubcc4\uc2dc \uc591\ucc9c\uad6c \uc2e0\uc6d4\ub3d9 \ud654\uace1\ub85c \uff17\uff13", "geometry": {"location": {"lat": 37.5397827, "lng": 126.8299968}, "location_type": "ROOFTOP", "viewport": {"northeast": {"lat": 37.54113168029149, "lng": 126.8313457802915}, "southwest": {"lat": 37.53843371970849, "lng": 126.8286478197085}}}, "place_id": "ChIJYW3jRBScfDURCY2dwRu1wAQ", "types": ["establishment", "point_of_interest", "police"]}], [{"address_components": [{"long_name": "\uff15\uff17", "short_name": "\uff15\uff17", "types": ["premise"]}, {"long_name": "\uc131\ub0b4\ub85c", "short_name": "\uc131\ub0b4\ub85c", "types": ["political", "sublocality", "sublocality_level_4"]}, {"long_name": "\uc131\ub0b41\ub3d9", "short_name": "\uc131\ub0b41\ub3d9", "types": ["political", "sublocality", "sublocality_level_2"]}, {"long_name": "\uac15\ub3d9\uad6c", "short_name": "\uac15\ub3d9\uad6c", "types": ["political", "sublocality", "sublocality_level_1"]}, {"long_name": "\uc11c\uc6b8\ud2b9\ubcc4\uc2dc", "short_name": "\uc11c\uc6b8\ud2b9\ubcc4\uc2dc", "types": ["administrative_area_level_1", "political"]}, {"long_name": "\ub300\ud55c\ubbfc\uad6d", "short_name": "KR", "types": ["country", "political"]}, {"long_name": "134-030", "short_name": "134-030", "types": ["postal_code"]}], "formatted_address": "\ub300\ud55c\ubbfc\uad6d \uc11c\uc6b8\ud2b9\ubcc4\uc2dc \uac15\ub3d9\uad6c \uc131\ub0b41\ub3d9 \uc131\ub0b4\ub85c \uff15\uff17", "geometry": {"location": {"lat": 37.528511, "lng": 127.1268224}, "location_type": "ROOFTOP", "viewport": {"northeast": {"lat": 37.5298599802915, "lng": 127.1281713802915}, "southwest": {"lat": 37.52716201970851, "lng": 127.1254734197085}}}, "place_id": "ChIJz_fwQlilfDURUxRjmop7l7s", "types": ["establishment", "point_of_interest", "police"]}], [{"address_components": [{"long_name": "\uff13\u2212\uff11\uff12\uff16\uff10", "short_name": "\uff13\u2212\uff11\uff12\uff16\uff10", "types": ["premise"]}, {"long_name": "\uc885\uc554\ub3d9", "short_name": "\uc885\uc554\ub3d9", "types": ["political", "sublocality", "sublocality_level_2"]}, {"long_name": "\uc131\ubd81\uad6c", "short_name": "\uc131\ubd81\uad6c", "types": ["political", "sublocality", "sublocality_level_1"]}, {"long_name": "\uc11c\uc6b8\ud2b9\ubcc4\uc2dc", "short_name": "\uc11c\uc6b8\ud2b9\ubcc4\uc2dc", "types": ["administrative_area_level_1", "political"]}, {"long_name": "\ub300\ud55c\ubbfc\uad6d", "short_name": "KR", "types": ["country", "political"]}, {"long_name": "136-090", "short_name": "136-090", "types": ["postal_code"]}], "formatted_address": "\ub300\ud55c\ubbfc\uad6d \uc11c\uc6b8\ud2b9\ubcc4\uc2dc \uc131\ubd81\uad6c \uc885\uc554\ub3d9 \uff13\u2212\uff11\uff12\uff16\uff10", "geometry": {"location": {"lat": 37.6020592, "lng": 127.0321577}, "location_type": "ROOFTOP", "viewport": {"northeast": {"lat": 37.6034081802915, "lng": 127.0335066802915}, "southwest": {"lat": 37.6007102197085, "lng": 127.0308087197085}}}, "place_id": "ChIJT33rKpu8fDURkaGCAbt23S0", "types": ["establishment", "point_of_interest", "police"]}], [{"address_components": [{"long_name": "\uac00\ub9c8\uc0b0\ub85c", "short_name": "\uac00\ub9c8\uc0b0\ub85c", "types": ["political", "sublocality", "sublocality_level_4"]}, {"long_name": "\uad6c\ub85c\uad6c", "short_name": "\uad6c\ub85c\uad6c", "types": ["political", "sublocality", "sublocality_level_1"]}, {"long_name": "\uc11c\uc6b8\ud2b9\ubcc4\uc2dc", "short_name": "\uc11c\uc6b8\ud2b9\ubcc4\uc2dc", "types": ["locality", "political"]}, {"long_name": "\ub300\ud55c\ubbfc\uad6d", "short_name": "KR", "types": ["country", "political"]}], "formatted_address": "\ub300\ud55c\ubbfc\uad6d \uc11c\uc6b8\ud2b9\ubcc4\uc2dc \uad6c\ub85c\uad6c \uac00\ub9c8\uc0b0\ub85c 235", "geometry": {"location": {"lat": 37.494931, "lng": 126.886731}, "location_type": "ROOFTOP", "viewport": {"northeast": {"lat": 37.4962799802915, "lng": 126.8880799802915}, "southwest": {"lat": 37.49358201970851, "lng": 126.8853820197085}}}, "place_id": "ChIJmRBVTBSefDURMQeUuNnWXlU", "types": ["establishment", "point_of_interest", "police"]}], [{"address_components": [{"long_name": "\uff11\uff17\uff19", "short_name": "\uff11\uff17\uff19", "types": ["premise"]}, {"long_name": "\ubc18\ud3ec\ub300\ub85c", "short_name": "\ubc18\ud3ec\ub300\ub85c", "types": ["political", "sublocality", "sublocality_level_4"]}, {"long_name": "\uc11c\ucd083\ub3d9", "short_name": "\uc11c\ucd083\ub3d9", "types": ["political", "sublocality", "sublocality_level_2"]}, {"long_name": "\uc11c\ucd08\uad6c", "short_name": "\uc11c\ucd08\uad6c", "types": ["political", "sublocality", "sublocality_level_1"]}, {"long_name": "\uc11c\uc6b8\ud2b9\ubcc4\uc2dc", "short_name": "\uc11c\uc6b8\ud2b9\ubcc4\uc2dc", "types": ["administrative_area_level_1", "political"]}, {"long_name": "\ub300\ud55c\ubbfc\uad6d", "short_name": "KR", "types": ["country", "political"]}, {"long_name": "137-070", "short_name": "137-070", "types": ["postal_code"]}], "formatted_address": "\ub300\ud55c\ubbfc\uad6d \uc11c\uc6b8\ud2b9\ubcc4\uc2dc \uc11c\ucd08\uad6c \uc11c\ucd083\ub3d9 \ubc18\ud3ec\ub300\ub85c \uff11\uff17\uff19", "geometry": {"location": {"lat": 37.4956054, "lng": 127.0052504}, "location_type": "ROOFTOP", "viewport": {"northeast": {"lat": 37.49695438029149, "lng": 127.0065993802915}, "southwest": {"lat": 37.49425641970849, "lng": 127.0039014197085}}}, "place_id": "ChIJWffyGkqhfDURLuilSJqwZLA", "types": ["establishment", "point_of_interest", "police"]}], [{"address_components": [{"long_name": "\uff19\uff19", "short_name": "\uff19\uff19", "types": ["premise"]}, {"long_name": "\ubaa9\ub3d9\ub3d9\ub85c", "short_name": "\ubaa9\ub3d9\ub3d9\ub85c", "types": ["political", "sublocality", "sublocality_level_4"]}, {"long_name": "\uc2e0\uc8156\ub3d9", "short_name": "\uc2e0\uc8156\ub3d9", "types": ["political", "sublocality", "sublocality_level_2"]}, {"long_name": "\uc591\ucc9c\uad6c", "short_name": "\uc591\ucc9c\uad6c", "types": ["political", "sublocality", "sublocality_level_1"]}, {"long_name": "\uc11c\uc6b8\ud2b9\ubcc4\uc2dc", "short_name": "\uc11c\uc6b8\ud2b9\ubcc4\uc2dc", "types": ["administrative_area_level_1", "political"]}, {"long_name": "\ub300\ud55c\ubbfc\uad6d", "short_name": "KR", "types": ["country", "political"]}, {"long_name": "158-070", "short_name": "158-070", "types": ["postal_code"]}], "formatted_address": "\ub300\ud55c\ubbfc\uad6d \uc11c\uc6b8\ud2b9\ubcc4\uc2dc \uc591\ucc9c\uad6c \uc2e0\uc8156\ub3d9 \ubaa9\ub3d9\ub3d9\ub85c \uff19\uff19", "geometry": {"location": {"lat": 37.5165667, "lng": 126.8656763}, "location_type": "ROOFTOP", "viewport": {"northeast": {"lat": 37.5179156802915, "lng": 126.8670252802915}, "southwest": {"lat": 37.5152177197085, "lng": 126.8643273197085}}}, "place_id": "ChIJwfQIp9edfDURwNXXjbRynKo", "types": ["establishment", "point_of_interest", "police"]}], [{"address_components": [{"long_name": "\uac00\ub77d\ubcf8\ub3d9", "short_name": "\uac00\ub77d\ubcf8\ub3d9", "types": ["political", "sublocality", "sublocality_level_2"]}, {"long_name": "\uc1a1\ud30c\uad6c", "short_name": "\uc1a1\ud30c\uad6c", "types": ["political", "sublocality", "sublocality_level_1"]}, {"long_name": "\uc11c\uc6b8\ud2b9\ubcc4\uc2dc", "short_name": "\uc11c\uc6b8\ud2b9\ubcc4\uc2dc", "types": ["locality", "political"]}, {"long_name": "\ub300\ud55c\ubbfc\uad6d", "short_name": "KR", "types": ["country", "political"]}], "formatted_address": "\ub300\ud55c\ubbfc\uad6d \uc11c\uc6b8\ud2b9\ubcc4\uc2dc \uc1a1\ud30c\uad6c \uac00\ub77d\ubcf8\ub3d9 9", "geometry": {"location": {"lat": 37.5019065, "lng": 127.1271513}, "location_type": "GEOMETRIC_CENTER", "viewport": {"northeast": {"lat": 37.50325548029149, "lng": 127.1285002802915}, "southwest": {"lat": 37.50055751970849, "lng": 127.1258023197085}}}, "place_id": "ChIJA1pC63-vfDURYsWgKqV9nUw", "types": ["establishment", "point_of_interest", "police"]}, {"address_components": [{"long_name": "\uff11\uff10\uff11", "short_name": "\uff11\uff10\uff11", "types": ["premise"]}, {"long_name": "\uc62c\ub9bc\ud53d\ub85c", "short_name": "\uc62c\ub9bc\ud53d\ub85c", "types": ["political", "sublocality", "sublocality_level_4"]}, {"long_name": "\uc7a0\uc2e42\ub3d9", "short_name": "\uc7a0\uc2e42\ub3d9", "types": ["political", "sublocality", "sublocality_level_2"]}, {"long_name": "\uc1a1\ud30c\uad6c", "short_name": "\uc1a1\ud30c\uad6c", "types": ["political", "sublocality", "sublocality_level_1"]}, {"long_name": "\uc11c\uc6b8\ud2b9\ubcc4\uc2dc", "short_name": "\uc11c\uc6b8\ud2b9\ubcc4\uc2dc", "types": ["administrative_area_level_1", "political"]}, {"long_name": "\ub300\ud55c\ubbfc\uad6d", "short_name": "KR", "types": ["country", "political"]}, {"long_name": "138-220", "short_name": "138-220", "types": ["postal_code"]}], "formatted_address": "\ub300\ud55c\ubbfc\uad6d \uc11c\uc6b8\ud2b9\ubcc4\uc2dc \uc1a1\ud30c\uad6c \uc7a0\uc2e42\ub3d9 \uc62c\ub9bc\ud53d\ub85c \uff11\uff10\uff11", "geometry": {"location": {"lat": 37.5121063, "lng": 127.0821487}, "location_type": "ROOFTOP", "viewport": {"northeast": {"lat": 37.5134552802915, "lng": 127.0834976802915}, "southwest": {"lat": 37.5107573197085, "lng": 127.0807997197085}}}, "place_id": "ChIJ0Yjda1OkfDURljIQKQk6lbs", "types": ["establishment", "point_of_interest", "police"]}], [{"address_components": [{"long_name": "\uff12\uff18\uff13", "short_name": "\uff12\uff18\uff13", "types": ["premise"]}, {"long_name": "\ub178\uc6d0\ub85c", "short_name": "\ub178\uc6d0\ub85c", "types": ["political", "sublocality", "sublocality_level_4"]}, {"long_name": "\ud558\uacc4\ub3d9", "short_name": "\ud558\uacc4\ub3d9", "types": ["political", "sublocality", "sublocality_level_2"]}, {"long_name": "\ub178\uc6d0\uad6c", "short_name": "\ub178\uc6d0\uad6c", "types": ["political", "sublocality", "sublocality_level_1"]}, {"long_name": "\uc11c\uc6b8\ud2b9\ubcc4\uc2dc", "short_name": "\uc11c\uc6b8\ud2b9\ubcc4\uc2dc", "types": ["administrative_area_level_1", "political"]}, {"long_name": "\ub300\ud55c\ubbfc\uad6d", "short_name": "KR", "types": ["country", "political"]}, {"long_name": "139-230", "short_name": "139-230", "types": ["postal_code"]}], "formatted_address": "\ub300\ud55c\ubbfc\uad6d \uc11c\uc6b8\ud2b9\ubcc4\uc2dc \ub178\uc6d0\uad6c \ud558\uacc4\ub3d9 \ub178\uc6d0\ub85c \uff12\uff18\uff13", "geometry": {"location": {"lat": 37.6423605, "lng": 127.0714027}, "location_type": "ROOFTOP", "viewport": {"northeast": {"lat": 37.64370948029149, "lng": 127.0727516802915}, "southwest": {"lat": 37.6410115197085, "lng": 127.0700537197085}}}, "place_id": "ChIJQ9zARmW5fDURgrNe_TNJWP4", "types": ["establishment", "point_of_interest", "police"]}], [{"address_components": [{"long_name": "54", "short_name": "54", "types": ["political", "premise"]}, {"long_name": "\ubc29\ubc30\ucc9c\ub85c", "short_name": "\ubc29\ubc30\ucc9c\ub85c", "types": ["political", "sublocality", "sublocality_level_4"]}, {"long_name": "\ubc29\ubc302\ub3d9", "short_name": "\ubc29\ubc302\ub3d9", "types": ["political", "sublocality", "sublocality_level_2"]}, {"long_name": "\uc11c\ucd08\uad6c", "short_name": "\uc11c\ucd08\uad6c", "types": ["political", "sublocality", "sublocality_level_1"]}, {"long_name": "\uc11c\uc6b8\ud2b9\ubcc4\uc2dc", "short_name": "\uc11c\uc6b8\ud2b9\ubcc4\uc2dc", "types": ["administrative_area_level_1", "political"]}, {"long_name": "\ub300\ud55c\ubbfc\uad6d", "short_name": "KR", "types": ["country", "political"]}, {"long_name": "137-060", "short_name": "137-060", "types": ["postal_code"]}], "formatted_address": "\ub300\ud55c\ubbfc\uad6d \uc11c\uc6b8\ud2b9\ubcc4\uc2dc \uc11c\ucd08\uad6c \ubc29\ubc302\ub3d9 \ubc29\ubc30\ucc9c\ub85c 54", "geometry": {"location": {"lat": 37.4815453, "lng": 126.9829992}, "location_type": "ROOFTOP", "viewport": {"northeast": {"lat": 37.4828942802915, "lng": 126.9843481802915}, "southwest": {"lat": 37.4801963197085, "lng": 126.9816502197085}}}, "place_id": "ChIJIVym0kygfDUR9S_sSnCasQU", "types": ["establishment", "point_of_interest", "police"]}], [{"address_components": [{"long_name": "\uff13\uff16\uff15", "short_name": "\uff13\uff16\uff15", "types": ["premise"]}, {"long_name": "\uc5f0\uc11c\ub85c", "short_name": "\uc5f0\uc11c\ub85c", "types": ["political", "sublocality", "sublocality_level_4"]}, {"long_name": "\ubd88\uad112\ub3d9", "short_name": "\ubd88\uad112\ub3d9", "types": ["political", "sublocality", "sublocality_level_2"]}, {"long_name": "\uc740\ud3c9\uad6c", "short_name": "\uc740\ud3c9\uad6c", "types": ["political", "sublocality", "sublocality_level_1"]}, {"long_name": "\uc11c\uc6b8\ud2b9\ubcc4\uc2dc", "short_name": "\uc11c\uc6b8\ud2b9\ubcc4\uc2dc", "types": ["administrative_area_level_1", "political"]}, {"long_name": "\ub300\ud55c\ubbfc\uad6d", "short_name": "KR", "types": ["country", "political"]}, {"long_name": "122-040", "short_name": "122-040", "types": ["postal_code"]}], "formatted_address": "\ub300\ud55c\ubbfc\uad6d \uc11c\uc6b8\ud2b9\ubcc4\uc2dc \uc740\ud3c9\uad6c \ubd88\uad112\ub3d9 \uc5f0\uc11c\ub85c \uff13\uff16\uff15", "geometry": {"location": {"lat": 37.6283597, "lng": 126.9287226}, "location_type": "ROOFTOP", "viewport": {"northeast": {"lat": 37.62970868029149, "lng": 126.9300715802915}, "southwest": {"lat": 37.6270107197085, "lng": 126.9273736197085}}}, "place_id": "ChIJH8IMtZWXfDURVy-L5JUjvM4", "types": ["establishment", "point_of_interest", "police"]}, {"address_components": [{"long_name": "\uff12\uff19\uff10", "short_name": "\uff12\uff19\uff10", "types": ["premise"]}, {"long_name": "\uc5f0\uc11c\ub85c", "short_name": "\uc5f0\uc11c\ub85c", "types": ["political", "sublocality", "sublocality_level_4"]}, {"long_name": "\ubd88\uad112\ub3d9", "short_name": "\ubd88\uad112\ub3d9", "types": ["political", "sublocality", "sublocality_level_2"]}, {"long_name": "\uc740\ud3c9\uad6c", "short_name": "\uc740\ud3c9\uad6c", "types": ["political", "sublocality", "sublocality_level_1"]}, {"long_name": "\uc11c\uc6b8\ud2b9\ubcc4\uc2dc", "short_name": "\uc11c\uc6b8\ud2b9\ubcc4\uc2dc", "types": ["administrative_area_level_1", "political"]}, {"long_name": "\ub300\ud55c\ubbfc\uad6d", "short_name": "KR", "types": ["country", "political"]}, {"long_name": "122-040", "short_name": "122-040", "types": ["postal_code"]}], "formatted_address": "\ub300\ud55c\ubbfc\uad6d \uc11c\uc6b8\ud2b9\ubcc4\uc2dc \uc740\ud3c9\uad6c \ubd88\uad112\ub3d9 \uc5f0\uc11c\ub85c \uff12\uff19\uff10", "geometry": {"location": {"lat": 37.6213883, "lng": 126.9265841}, "location_type": "ROOFTOP", "viewport": {"northeast": {"lat": 37.6227372802915, "lng": 126.9279330802915}, "southwest": {"lat": 37.6200393197085, "lng": 126.9252351197085}}}, "place_id": "ChIJfUNCBY6XfDURovuAujtS-eM", "types": ["establishment", "point_of_interest", "police"]}], [{"address_components": [{"long_name": "\uff14\uff10\uff13", "short_name": "\uff14\uff10\uff13", "types": ["premise"]}, {"long_name": "\ub178\ud574\ub85c", "short_name": "\ub178\ud574\ub85c", "types": ["political", "sublocality", "sublocality_level_4"]}, {"long_name": "\ucc3d4\ub3d9", "short_name": "\ucc3d4\ub3d9", "types": ["political", "sublocality", "sublocality_level_2"]}, {"long_name": "\ub3c4\ubd09\uad6c", "short_name": "\ub3c4\ubd09\uad6c", "types": ["political", "sublocality", "sublocality_level_1"]}, {"long_name": "\uc11c\uc6b8\ud2b9\ubcc4\uc2dc", "short_name": "\uc11c\uc6b8\ud2b9\ubcc4\uc2dc", "types": ["administrative_area_level_1", "political"]}, {"long_name": "\ub300\ud55c\ubbfc\uad6d", "short_name": "KR", "types": ["country", "political"]}, {"long_name": "132-040", "short_name": "132-040", "types": ["postal_code"]}], "formatted_address": "\ub300\ud55c\ubbfc\uad6d \uc11c\uc6b8\ud2b9\ubcc4\uc2dc \ub3c4\ubd09\uad6c \ucc3d4\ub3d9 \ub178\ud574\ub85c \uff14\uff10\uff13", "geometry": {"location": {"lat": 37.6533589, "lng": 127.052682}, "location_type": "ROOFTOP", "viewport": {"northeast": {"lat": 37.6547078802915, "lng": 127.0540309802915}, "southwest": {"lat": 37.6520099197085, "lng": 127.0513330197085}}}, "place_id": "ChIJTUiMyEW5fDURH_6VenyTTpw", "types": ["establishment", "point_of_interest", "police"]}], [{"address_components": [{"long_name": "\uff16\uff11\uff17", "short_name": "\uff16\uff11\uff17", "types": ["premise"]}, {"long_name": "\uac1c\ud3ec\ub85c", "short_name": "\uac1c\ud3ec\ub85c", "types": ["political", "sublocality", "sublocality_level_4"]}, {"long_name": "\uac1c\ud3ec\ub3d9", "short_name": "\uac1c\ud3ec\ub3d9", "types": ["political", "sublocality", "sublocality_level_2"]}, {"long_name": "\uac15\ub0a8\uad6c", "short_name": "\uac15\ub0a8\uad6c", "types": ["political", "sublocality", "sublocality_level_1"]}, {"long_name": "\uc11c\uc6b8\ud2b9\ubcc4\uc2dc", "short_name": "\uc11c\uc6b8\ud2b9\ubcc4\uc2dc", "types": ["administrative_area_level_1", "political"]}, {"long_name": "\ub300\ud55c\ubbfc\uad6d", "short_name": "KR", "types": ["country", "political"]}, {"long_name": "135-232", "short_name": "135-232", "types": ["postal_code"]}], "formatted_address": "\ub300\ud55c\ubbfc\uad6d \uc11c\uc6b8\ud2b9\ubcc4\uc2dc \uac15\ub0a8\uad6c \uac1c\ud3ec\ub3d9 \uac1c\ud3ec\ub85c \uff16\uff11\uff17", "geometry": {"location": {"lat": 37.49349, "lng": 127.0772119}, "location_type": "ROOFTOP", "viewport": {"northeast": {"lat": 37.4948389802915, "lng": 127.0785608802915}, "southwest": {"lat": 37.49214101970851, "lng": 127.0758629197085}}}, "place_id": "ChIJY2ee_TGkfDURAWUtC8jBHag", "types": ["establishment", "point_of_interest", "police"]}]]